{
"type": "FeatureCollection",
"crs": { "type": "name", "properties": { "name": "urn:ogc:def:crs:OGC:1.3:CRS84" } },
                                                                                                                                  
"features": [
{ "type": "Feature", "properties": { "Name": "Allegany County Office Complex", "Address": "701 Kelly Road", "Address2": "Room 100", "City": "Cumberland", "State": "MD", "ZIP": "21502", "addrtype": "street_address", "addrlocat": "RANGE_INTERPOLATED" }, "geometry": { "type": "Point", "coordinates": [ -78.7774865, 39.6458911 ] } },
{ "type": "Feature", "properties": { "Name": "Odenton Regional Library", "Address": "1325 Annapolis Road", "Address2": null, "City": "Odenton", "State": "MD", "ZIP": "21113", "addrtype": "premise", "addrlocat": "ROOFTOP" }, "geometry": { "type": "Point", "coordinates": [ -76.7001832, 39.0872527 ] } },
{ "type": "Feature", "properties": { "Name": "Glen Burnie Regional Library", "Address": "1010 Eastway", "Address2": null, "City": "Glen Burnie", "State": "MD", "ZIP": "21060", "addrtype": "premise", "addrlocat": "ROOFTOP" }, "geometry": { "type": "Point", "coordinates": [ -76.6133711, 39.1533867 ] } },
{ "type": "Feature", "properties": { "Name": "Severna Park Community Library", "Address": "45 West McKinsey Road", "Address2": null, "City": "Severna Park", "State": "MD", "ZIP": "21146", "addrtype": "street_address", "addrlocat": "ROOFTOP" }, "geometry": { "type": "Point", "coordinates": [ -76.5449633, 39.0728802 ] } },
{ "type": "Feature", "properties": { "Name": "Annapolis Senior Activity Center", "Address": "119 S. Villa Avenue", "Address2": null, "City": "Annapolis", "State": "MD", "ZIP": "21401", "addrtype": "street_address", "addrlocat": "ROOFTOP" }, "geometry": { "type": "Point", "coordinates": [ -76.5115803, 38.9749298 ] } },
{ "type": "Feature", "properties": { "Name": "Edgewater Community Library", "Address": "25 Stepneys Lane", "Address2": null, "City": "Edgewater", "State": "MD", "ZIP": "21037", "addrtype": "street_address", "addrlocat": "ROOFTOP" }, "geometry": { "type": "Point", "coordinates": [ -76.5582571, 38.9301374 ] } },
{ "type": "Feature", "properties": { "Name": "Public Safety Training Center", "Address": "3500 W. Northern Parkway", "Address2": null, "City": "Baltimore", "State": "MD", "ZIP": "21215", "addrtype": "street_address", "addrlocat": "ROOFTOP" }, "geometry": { "type": "Point", "coordinates": [ -76.683106, 39.35447 ] } },
{ "type": "Feature", "properties": { "Name": "Southeast Anchor Library", "Address": "3601 Eastern Avenue", "Address2": null, "City": "Baltimore", "State": "MD", "ZIP": "21224", "addrtype": "street_address", "addrlocat": "ROOFTOP" }, "geometry": { "type": "Point", "coordinates": [ -76.5667424, 39.2862705 ] } },
{ "type": "Feature", "properties": { "Name": "Maritime Industries Academy School #431", "Address": "5001 Sinclair Lane", "Address2": null, "City": "Baltimore", "State": "MD", "ZIP": "21206", "addrtype": "premise", "addrlocat": "ROOFTOP" }, "geometry": { "type": "Point", "coordinates": [ -76.5463155, 39.3201546 ] } },
{ "type": "Feature", "properties": { "Name": "The League for People with Disabilities", "Address": "1111 E. Coldspring Lane", "Address2": null, "City": "Baltimore", "State": "MD", "ZIP": "21239", "addrtype": "premise", "addrlocat": "ROOFTOP" }, "geometry": { "type": "Point", "coordinates": [ -76.5985815, 39.3446418 ] } },
{ "type": "Feature", "properties": { "Name": "Westside Skill Center", "Address": "4501 Edmondson Avenue", "Address2": null, "City": "Baltimore", "State": "MD", "ZIP": "21229", "addrtype": "premise", "addrlocat": "ROOFTOP" }, "geometry": { "type": "Point", "coordinates": [ -76.6912871, 39.2928492 ] } },
{ "type": "Feature", "properties": { "Name": "University of Maryland at Baltimore Community Engagement Center", "Address": "1 North Poppleton Street", "Address2": null, "City": "Baltimore", "State": "MD", "ZIP": "21201", "addrtype": "street_address", "addrlocat": "ROOFTOP" }, "geometry": { "type": "Point", "coordinates": [ -76.631673, 39.289148 ] } },
{ "type": "Feature", "properties": { "Name": "Towson University - Administration Building", "Address": "7720 York Road", "Address2": null, "City": "Towson", "State": "MD", "ZIP": "21252", "addrtype": "street_address", "addrlocat": "ROOFTOP" }, "geometry": { "type": "Point", "coordinates": [ -76.60838, 39.389728 ] } },
{ "type": "Feature", "properties": { "Name": "Arbutus Community Center", "Address": "865 Sulphur Spring Road", "Address2": null, "City": "Baltimore", "State": "MD", "ZIP": "21227", "addrtype": "street_address", "addrlocat": "RANGE_INTERPOLATED" }, "geometry": { "type": "Point", "coordinates": [ -76.7117286, 39.2429364 ] } },
{ "type": "Feature", "properties": { "Name": "Honeygo Run Community Center", "Address": "9033 Honeygo Boulevard", "Address2": null, "City": "Perry Hall", "State": "MD", "ZIP": "21128", "addrtype": "street_address", "addrlocat": "ROOFTOP" }, "geometry": { "type": "Point", "coordinates": [ -76.4510384, 39.3961479 ] } },
{ "type": "Feature", "properties": { "Name": "Sollers Point Multi-Purpose Center", "Address": "323 Sollers Point Road", "Address2": null, "City": "Dundalk", "State": "MD", "ZIP": "21222", "addrtype": "street_address", "addrlocat": "RANGE_INTERPOLATED" }, "geometry": { "type": "Point", "coordinates": [ -76.5089828, 39.2445476 ] } },
{ "type": "Feature", "properties": { "Name": "Randallstown Community Center", "Address": "3505 Resource Drive", "Address2": null, "City": "Randallstown", "State": "MD", "ZIP": "21133", "addrtype": "street_address", "addrlocat": "ROOFTOP" }, "geometry": { "type": "Point", "coordinates": [ -76.787998, 39.3631103 ] } },
{ "type": "Feature", "properties": { "Name": "Victory Villa Community Center", "Address": "404 E Compass Road", "Address2": null, "City": "Baltimore", "State": "MD", "ZIP": "21220", "addrtype": "route", "addrlocat": "GEOMETRIC_CENTER" }, "geometry": { "type": "Point", "coordinates": [ -76.4492638, 39.3434159 ] } },
{ "type": "Feature", "properties": { "Name": "Center for MD Agriculture & Farm Park", "Address": "1114 Shawan Road", "Address2": null, "City": "Cockeysville", "State": "MD", "ZIP": "21030", "addrtype": "street_address", "addrlocat": "ROOFTOP" }, "geometry": { "type": "Point", "coordinates": [ -76.6856743, 39.5031932 ] } },
{ "type": "Feature", "properties": { "Name": "Reisterstown Senior Center - Hannah More Campus", "Address": "12035 Reisterstown Road", "Address2": null, "City": "Reisterstown", "State": "MD", "ZIP": "21136", "addrtype": "street_address", "addrlocat": "ROOFTOP" }, "geometry": { "type": "Point", "coordinates": [ -76.818082, 39.451222 ] } },
{ "type": "Feature", "properties": { "Name": "Woodlawn Community Center", "Address": "2120 Gwynn Oak Avenue", "Address2": null, "City": "Woodlawn", "State": "MD", "ZIP": "21207", "addrtype": "premise", "addrlocat": "ROOFTOP" }, "geometry": { "type": "Point", "coordinates": [ -76.7259592, 39.3228115 ] } },
{ "type": "Feature", "properties": { "Name": "Community Resources Building", "Address": "30 Duke Street", "Address2": null, "City": "Prince Frederick", "State": "MD", "ZIP": "20678", "addrtype": "street_address", "addrlocat": "ROOFTOP" }, "geometry": { "type": "Point", "coordinates": [ -76.584724, 38.536855 ] } },
{ "type": "Feature", "properties": { "Name": "Caroline County Health & Public Services Building", "Address": "403 S. Seventh Street", "Address2": "Suite 112", "City": "Denton", "State": "MD", "ZIP": "21629", "addrtype": "premise", "addrlocat": "ROOFTOP" }, "geometry": { "type": "Point", "coordinates": [ -75.8269966, 38.8801108 ] } },
{ "type": "Feature", "properties": { "Name": "Westminster Senior Activities Center", "Address": "125 Stoner Avenue", "Address2": null, "City": "Westminster", "State": "MD", "ZIP": "21157", "addrtype": "street_address", "addrlocat": "ROOFTOP" }, "geometry": { "type": "Point", "coordinates": [ -76.99076, 39.5619965 ] } },
{ "type": "Feature", "properties": { "Name": "Cecil County Administration Building – Elk Room", "Address": "200 Chesapeake Boulevard", "Address2": null, "City": "Elkton", "State": "MD", "ZIP": "21921", "addrtype": "premise", "addrlocat": "ROOFTOP" }, "geometry": { "type": "Point", "coordinates": [ -75.785575, 39.5979204 ] } },
{ "type": "Feature", "properties": { "Name": "La Plata Firehouse", "Address": "911 Washington Avenue", "Address2": null, "City": "La Plata", "State": "MD", "ZIP": "20646", "addrtype": "premise", "addrlocat": "ROOFTOP" }, "geometry": { "type": "Point", "coordinates": [ -76.9799679, 38.5435593 ] } },
{ "type": "Feature", "properties": { "Name": "Gleneagles Neighborhood Center", "Address": "4900 Kirkcaldy Court", "Address2": null, "City": "Waldorf", "State": "MD", "ZIP": "20602", "addrtype": "route", "addrlocat": "GEOMETRIC_CENTER" }, "geometry": { "type": "Point", "coordinates": [ -76.9134685, 38.5783445 ] } },
{ "type": "Feature", "properties": { "Name": "Dorchester County Office Building", "Address": "501 Court Lane", "Address2": null, "City": "Cambridge", "State": "MD", "ZIP": "21613", "addrtype": "street_address", "addrlocat": "ROOFTOP" }, "geometry": { "type": "Point", "coordinates": [ -76.074348, 38.5724469 ] } },
{ "type": "Feature", "properties": { "Name": "Frederick Senior Center", "Address": "1440 Taney Avenue", "Address2": null, "City": "Frederick", "State": "MD", "ZIP": "21702", "addrtype": "premise", "addrlocat": "ROOFTOP" }, "geometry": { "type": "Point", "coordinates": [ -77.4119331, 39.4363995 ] } },
{ "type": "Feature", "properties": { "Name": "Thurmont Regional Library", "Address": "76 E. Moser Road", "Address2": null, "City": "Thurmont MD", "State": "21788", "ZIP": "premise", "addrtype": "ROOFTOP", "addrlocat": null }, "geometry": { "type": "Point", "coordinates": [ -77.4121435, 39.6129142 ] } },
{ "type": "Feature", "properties": { "Name": "Urbana Regional Library", "Address": "9020 Amelung Street", "Address2": null, "City": "Frederick", "State": "MD", "ZIP": "21704", "addrtype": "premise", "addrlocat": "ROOFTOP" }, "geometry": { "type": "Point", "coordinates": [ -77.3540128, 39.3313924 ] } },
{ "type": "Feature", "properties": { "Name": "Oakland Community Center (The Armory)", "Address": "14 N. 8th Street", "Address2": null, "City": "Oakland", "State": "MD", "ZIP": "21550", "addrtype": "street_address", "addrlocat": "RANGE_INTERPOLATED" }, "geometry": { "type": "Point", "coordinates": [ -79.3990932, 39.4077935 ] } },
{ "type": "Feature", "properties": { "Name": "Northern Outreach Center", "Address": "12601 National Pike", "Address2": null, "City": "Grantsville", "State": "MD", "ZIP": "21536", "addrtype": "street_address", "addrlocat": "ROOFTOP" }, "geometry": { "type": "Point", "coordinates": [ -79.100194, 39.695386 ] } },
{ "type": "Feature", "properties": { "Name": "McFaul Activity Center", "Address": "525 W. MacPhail Road", "Address2": null, "City": "Bel Air", "State": "MD", "ZIP": "21014", "addrtype": "premise", "addrlocat": "ROOFTOP" }, "geometry": { "type": "Point", "coordinates": [ -76.3438324, 39.5225705 ] } },
{ "type": "Feature", "properties": { "Name": "Edgewood Library", "Address": "629 Edgewood Road", "Address2": null, "City": "Edgewood", "State": "MD", "ZIP": "21040", "addrtype": "street_address", "addrlocat": "ROOFTOP" }, "geometry": { "type": "Point", "coordinates": [ -76.2988348, 39.4265616 ] } },
{ "type": "Feature", "properties": { "Name": "The University Center (formerly HEAT Center)", "Address": "1201 Technology Drive", "Address2": null, "City": "Aberdeen", "State": "MD", "ZIP": "21001", "addrtype": "street_address", "addrlocat": "ROOFTOP" }, "geometry": { "type": "Point", "coordinates": [ -76.196693, 39.528442 ] } },
{ "type": "Feature", "properties": { "Name": "Jarrettsville Library", "Address": "3722 Norrisville Road", "Address2": null, "City": "Jarrettsville", "State": "MD", "ZIP": "21084", "addrtype": "premise", "addrlocat": "ROOFTOP" }, "geometry": { "type": "Point", "coordinates": [ -76.4805134, 39.6019315 ] } },
{ "type": "Feature", "properties": { "Name": "The Bain Senior Center", "Address": "5470 Ruth Keeton Way", "Address2": null, "City": "Columbia", "State": "MD", "ZIP": "21044", "addrtype": "premise", "addrlocat": "ROOFTOP" }, "geometry": { "type": "Point", "coordinates": [ -76.8882629, 39.2234033 ] } },
{ "type": "Feature", "properties": { "Name": "Miller Branch Library", "Address": "9421 Frederick Road", "Address2": null, "City": "Ellicott City", "State": "MD", "ZIP": "21042", "addrtype": "street_address", "addrlocat": "ROOFTOP" }, "geometry": { "type": "Point", "coordinates": [ -76.8395818, 39.2726693 ] } },
{ "type": "Feature", "properties": { "Name": "Ridgely's Run Community Center", "Address": "8400 Mission Road", "Address2": null, "City": "Jessup", "State": "MD", "ZIP": "21784", "addrtype": "street_address", "addrlocat": "ROOFTOP" }, "geometry": { "type": "Point", "coordinates": [ -76.8013106, 39.1675036 ] } },
{ "type": "Feature", "properties": { "Name": "Kent County Public Library", "Address": "408 High Street", "Address2": null, "City": "Chestertown", "State": "MD", "ZIP": "21620", "addrtype": "premise", "addrlocat": "ROOFTOP" }, "geometry": { "type": "Point", "coordinates": [ -76.0690761, 39.2110727 ] } },
{ "type": "Feature", "properties": { "Name": "Germantown Community Recreation Center", "Address": "18905 Kingsview Road", "Address2": null, "City": "Germantown", "State": "MD", "ZIP": "20874", "addrtype": "street_address", "addrlocat": "ROOFTOP" }, "geometry": { "type": "Point", "coordinates": [ -77.2855246, 39.1651892 ] } },
{ "type": "Feature", "properties": { "Name": "Marilyn J. Praisner Community Recreation Center", "Address": "14906 Old Columbia Pike", "Address2": null, "City": "Burtonsville", "State": "MD", "ZIP": "20866", "addrtype": "street_address", "addrlocat": "ROOFTOP" }, "geometry": { "type": "Point", "coordinates": [ -76.941686, 39.102063 ] } },
{ "type": "Feature", "properties": { "Name": "Executive Office Building Auditorium", "Address": "101 Monroe Street", "Address2": null, "City": "Rockville", "State": "MD", "ZIP": "20850", "addrtype": "premise", "addrlocat": "ROOFTOP" }, "geometry": { "type": "Point", "coordinates": [ -77.1493858, 39.0830403 ] } },
{ "type": "Feature", "properties": { "Name": "Silver Spring Civic Building at Veterans Plaza", "Address": "1 Veterans Place", "Address2": null, "City": "Silver Spring", "State": "MD", "ZIP": "20910", "addrtype": "street_address", "addrlocat": "ROOFTOP" }, "geometry": { "type": "Point", "coordinates": [ -77.0246818, 38.9973211 ] } },
{ "type": "Feature", "properties": { "Name": "Activity Center at Bohrer Park Social Hall", "Address": "506 S. Frederick Avenue", "Address2": null, "City": "Gaithersburg", "State": "MD", "ZIP": "20877", "addrtype": "street_address", "addrlocat": "ROOFTOP" }, "geometry": { "type": "Point", "coordinates": [ -77.1949515, 39.1334129 ] } },
{ "type": "Feature", "properties": { "Name": "Damascus Community Recreation Center Social Hall", "Address": "25520 Oak Drive", "Address2": null, "City": "Damascus", "State": "MD", "ZIP": "20872", "addrtype": "street_address", "addrlocat": "ROOFTOP" }, "geometry": { "type": "Point", "coordinates": [ -77.2152932, 39.2772161 ] } },
{ "type": "Feature", "properties": { "Name": "Jane E. Lawton Community Recreation Center Social Hall", "Address": "4301 Willow Lane", "Address2": null, "City": "Chevy Chase", "State": "MD", "ZIP": "20815", "addrtype": "street_address", "addrlocat": "ROOFTOP" }, "geometry": { "type": "Point", "coordinates": [ -77.0876641, 38.9826515 ] } },
{ "type": "Feature", "properties": { "Name": "Mid-County Community Recreation Center Social Hall", "Address": "2004 Queensguard Road", "Address2": null, "City": "Silver Spring", "State": "MD", "ZIP": "20906", "addrtype": "street_address", "addrlocat": "ROOFTOP" }, "geometry": { "type": "Point", "coordinates": [ -77.0430904, 39.0868777 ] } },
{ "type": "Feature", "properties": { "Name": "Wheaton Volunteer Rescue Squad", "Address": "2400 Arcola Avenue", "Address2": null, "City": "Wheaton", "State": "MD", "ZIP": "20902", "addrtype": "premise", "addrlocat": "ROOFTOP" }, "geometry": { "type": "Point", "coordinates": [ -77.0514603, 39.0467139 ] } },
{ "type": "Feature", "properties": { "Name": "Potomac Community Recreation Center", "Address": "11315 Falls Road", "Address2": null, "City": "Potomac", "State": "MD", "ZIP": "20854", "addrtype": "premise", "addrlocat": "ROOFTOP" }, "geometry": { "type": "Point", "coordinates": [ -77.1915813, 39.0410135 ] } },
{ "type": "Feature", "properties": { "Name": "Upper Marlboro Community Center", "Address": "5400 Marlboro Race Track Road", "Address2": null, "City": "Upper Marlboro", "State": "MD", "ZIP": "20772", "addrtype": "premise", "addrlocat": "ROOFTOP" }, "geometry": { "type": "Point", "coordinates": [ -76.7440895, 38.8144355 ] } },
{ "type": "Feature", "properties": { "Name": "College Park Community Center", "Address": "5051 Pierce Avenue", "Address2": null, "City": "College Park", "State": "MD", "ZIP": "20740", "addrtype": "premise", "addrlocat": "ROOFTOP" }, "geometry": { "type": "Point", "coordinates": [ -76.9273405, 38.9872392 ] } },
{ "type": "Feature", "properties": { "Name": "Bowie Gymnasium", "Address": "4100 Northview Drive", "Address2": null, "City": "Bowie", "State": "MD", "ZIP": "20716", "addrtype": "premise", "addrlocat": "ROOFTOP" }, "geometry": { "type": "Point", "coordinates": [ -76.7407974, 38.9449045 ] } },
{ "type": "Feature", "properties": { "Name": "Wayne K. Curry Sports and Learning Complex", "Address": "8001 Sheriff Road", "Address2": null, "City": "Landover", "State": "MD", "ZIP": "20785", "addrtype": "premise", "addrlocat": "ROOFTOP" }, "geometry": { "type": "Point", "coordinates": [ -76.8673592, 38.9112604 ] } },
{ "type": "Feature", "properties": { "Name": "Baden Community Center", "Address": "13601 Baden-Westwood Road", "Address2": null, "City": "Brandywine", "State": "MD", "ZIP": "20613", "addrtype": "street_address", "addrlocat": "ROOFTOP" }, "geometry": { "type": "Point", "coordinates": [ -76.7701752, 38.6607863 ] } },
{ "type": "Feature", "properties": { "Name": "Laurel – Beltsville Senior Activity Center", "Address": "7120 Contee Road", "Address2": null, "City": "Laurel", "State": "MD", "ZIP": "20707", "addrtype": "premise", "addrlocat": "ROOFTOP" }, "geometry": { "type": "Point", "coordinates": [ -76.8835696, 39.0876406 ] } },
{ "type": "Feature", "properties": { "Name": "Suitland Community Park School Center", "Address": "5600 Regency Lane", "Address2": null, "City": "Forestville", "State": "MD", "ZIP": "20747", "addrtype": "street_address", "addrlocat": "ROOFTOP" }, "geometry": { "type": "Point", "coordinates": [ -76.907051, 38.845516 ] } },
{ "type": "Feature", "properties": { "Name": "Southern Regional Technology and Recreation Complex", "Address": "7007 Bock Road", "Address2": null, "City": "Fort Washington", "State": "MD", "ZIP": "20744", "addrtype": "premise", "addrlocat": "ROOFTOP" }, "geometry": { "type": "Point", "coordinates": [ -76.974061, 38.7919463 ] } },
{ "type": "Feature", "properties": { "Name": "Community Services Kramer Center", "Address": "104 Powell Street", "Address2": null, "City": "Centreville", "State": "MD", "ZIP": "21617", "addrtype": "street_address", "addrlocat": "ROOFTOP" }, "geometry": { "type": "Point", "coordinates": [ -76.0664029, 39.047615 ] } },
{ "type": "Feature", "properties": { "Name": "Kent Island Fire Department", "Address": "1610 Main Street", "Address2": null, "City": "Chester", "State": "MD", "ZIP": "21619", "addrtype": "street_address", "addrlocat": "ROOFTOP" }, "geometry": { "type": "Point", "coordinates": [ -76.2881458, 38.9775686 ] } },
{ "type": "Feature", "properties": { "Name": "Hollywood Firehouse Carnival Bingo Building", "Address": "24801 Three Notch Road", "Address2": null, "City": "Hollywood", "State": "MD", "ZIP": "20636", "addrtype": "street_address", "addrlocat": "ROOFTOP" }, "geometry": { "type": "Point", "coordinates": [ -76.57637, 38.3486907 ] } },
{ "type": "Feature", "properties": { "Name": "Somerset County Office Building", "Address": "11916 Somerset Avenue", "Address2": "Suites 102 & 105", "City": "Princess Anne", "State": "MD", "ZIP": "21853", "addrtype": "street_address", "addrlocat": "ROOFTOP" }, "geometry": { "type": "Point", "coordinates": [ -75.696474, 38.208408 ] } },
{ "type": "Feature", "properties": { "Name": "Easton Fire Hall", "Address": "315 Aurora Park Drive", "Address2": null, "City": "Easton", "State": "MD", "ZIP": "21601", "addrtype": "premise", "addrlocat": "ROOFTOP" }, "geometry": { "type": "Point", "coordinates": [ -76.0733122, 38.7810249 ] } },
{ "type": "Feature", "properties": { "Name": "Washington County Early Voting Center - Phoenix Color Building II", "Address": "101 Tandy Drive", "Address2": null, "City": "Hagerstown", "State": "MD", "ZIP": "21740", "addrtype": "street_address", "addrlocat": "ROOFTOP" }, "geometry": { "type": "Point", "coordinates": [ -77.76078, 39.637625 ] } },
{ "type": "Feature", "properties": { "Name": "Wicomico County Youth and Civic Center", "Address": "500 Glen Avenue", "Address2": null, "City": "Salisbury", "State": "MD", "ZIP": "21801", "addrtype": "premise", "addrlocat": "ROOFTOP" }, "geometry": { "type": "Point", "coordinates": [ -75.5756585, 38.3610095 ] } },
{ "type": "Feature", "properties": { "Name": "Gull Creek Senior Living Community", "Address": "1 Meadow Street", "Address2": null, "City": "Berlin", "State": "MD", "ZIP": "21811", "addrtype": "premise", "addrlocat": "ROOFTOP" }, "geometry": { "type": "Point", "coordinates": [ -75.2128075, 38.3167796 ] } }
]
}
